sample_id,sample_name,biosample,sample_description,latitude,longitude,geolocation,biome,biome_feature,biome_material,assembly_run_ids,study_id
ERS1048982,AOBNOB1,SAMEA3861848,AOBNOB1,,,Australia,Wastewater,Activated Sludge,Reactor,ERR1233629,MGYS00000606
ERS1545891,MP_reactors,SAMEA80832418,MP_reactors,50.9,4.7,Belgium,anaerobic reactor,mesophilic anaerobic reactor,wastewater,ERR1823510,MGYS00001453
ERS1545892,MP_reactors,SAMEA80833168,MP_reactors,50.9,4.7,Belgium,anaerobic reactor,mesophilic anaerobic reactor,wastewater,ERR1823511,MGYS00001453
ERS1545893,MP_reactors,SAMEA80833918,MP_reactors,50.9,4.7,Belgium,anaerobic reactor,mesophilic anaerobic reactor,wastewater,ERR1823512,MGYS00001453
ERS1833119,b2forensics1,SAMEA104174101,wastewater sample collected on november 1st 2016,48.698,2.1795,France,,,,ERR2041951,MGYS00001903
ERS2597319,DTU2017_MG_100_EC_GA,SAMEA4777371,DTU2017_MG_100_EC_GA,-0.908,-89.6029,Ecuador,,,,ERR2683114,MGYS00003139
ERS2597320,DTU2017_MG_101_MW_KA,SAMEA4777372,DTU2017_MG_101_MW_KA,-13.051,33.8039,Malawi,,,,ERR2683115,MGYS00003139
ERS2597323,DTU2017_MG_104_MW_BL,SAMEA4777375,DTU2017_MG_104_MW_BL,-15.4703,35.02,Malawi,,,,ERR2683118,MGYS00003139
ERS2597326,DTU2017_MG_107_NG_IL_a,SAMEA4777378,DTU2017_MG_107_NG_IL_a,8.4804,4.6739,Nigeria,,,,ERR2683121,MGYS00003139
ERS2597329,DTU2017_MG_110_NG_IL_d,SAMEA4777381,DTU2017_MG_110_NG_IL_d,8.4808,4.672,Nigeria,,,,ERR2683124,MGYS00003139
ERS2597333,DTU2017_MG_114_NG_IB_a,SAMEA4777385,DTU2017_MG_114_NG_IB_a,7.4419,3.8966,Nigeria,,,,ERR2683128,MGYS00003139
ERS2597334,DTU2017_MG_115_NG_IB_b,SAMEA4777386,DTU2017_MG_115_NG_IB_b,7.4419,3.8966,Nigeria,,,,ERR2683129,MGYS00003139
ERS2597338,DTU2017_MG_119_NI_MS,SAMEA4777390,DTU2017_MG_119_NI_MS,11.9842,-86.1056,Nicaragua,,,,ERR2683133,MGYS00003139
ERS2597341,DTU2017_MG_121_EE_TA,SAMEA4777393,DTU2017_MG_121_EE_TA,58.34,26.7372,Estonia,,,,ERR2683136,MGYS00003139
ERS2597342,DTU2017_MG_122_EE_TL,SAMEA4777394,DTU2017_MG_122_EE_TL,59.466,24.7022,Estonia,,,,ERR2683137,MGYS00003139
ERS2597343,DTU2017_MG_123_EE_PR,SAMEA4777395,DTU2017_MG_123_EE_PR,58.3871,24.4537,Estonia,,,,ERR2683138,MGYS00003139
ERS2597345,DTU2017_MG_125_TH_PA,SAMEA4777397,DTU2017_MG_125_TH_PA,14.0697,100.6106,Thailand,,,,ERR2683140,MGYS00003139
ERS2597346,DTU2017_MG_126_GE_KU,SAMEA4777398,DTU2017_MG_126_GE_KU,42.2393,42.6758,Georgia,,,,ERR2683141,MGYS00003139
ERS2597348,DTU2017_MG_128_ZA_PR,SAMEA4777400,DTU2017_MG_128_ZA_PR,-25.7344,28.1779,South Africa,,,,ERR2683143,MGYS00003139
ERS2597349,DTU2017_MG_129_LU_LU,SAMEA4777401,DTU2017_MG_129_LU_LU,49.651,6.13,Luxembourg,,,,ERR2683144,MGYS00003139
ERS2597350,DTU2017_MG_12_MY_KG,SAMEA4777402,DTU2017_MG_12_MY_KG,3.0047,101.4342,Malaysia,,,,ERR2683145,MGYS00003139
ERS2597351,DTU2017_MG_130_IT_RO,SAMEA4777403,DTU2017_MG_130_IT_RO,41.8193,12.4281,Italy,,,,ERR2683146,MGYS00003139
ERS2597352,DTU2017_MG_131_KR_GW,SAMEA4777404,DTU2017_MG_131_KR_GW,35.1559,126.8355,South Korea,,,,ERR2683147,MGYS00003139
ERS2597365,DTU2017_MG_143_UG_KA,SAMEA4777417,DTU2017_MG_143_UG_KA,0.3193,32.6061,Uganda,,,,ERR2683160,MGYS00003139
ERS2597375,DTU2017_MG_152_NP_KA,SAMEA4777427,DTU2017_MG_152_NP_KA,27.7008,85.3001,Nepal,,,,ERR2683170,MGYS00003139
ERS2597377,DTU2017_MG_154_GT_GU,SAMEA4777429,DTU2017_MG_154_GT_GU,14.5786,-90.5594,Guatemala,,,,ERR2683172,MGYS00003139
ERS2597378,DTU2017_MG_155_LT_VI,SAMEA4777430,DTU2017_MG_155_LT_VI,54.7097,25.2212,Lithuania,,,,ERR2683173,MGYS00003139
ERS2597379,DTU2017_MG_156_KE_NA,SAMEA4777431,DTU2017_MG_156_KE_NA,-1.2561,37.0118,Kenya,,,,ERR2683174,MGYS00003139
ERS2597382,DTU2017_MG_159_MK_SK,SAMEA4777434,DTU2017_MG_159_MK_SK,41.9906,21.4758,Macedonia,,,,ERR2683177,MGYS00003139
ERS2597384,DTU2017_MG_160_GH_TA,SAMEA4777436,DTU2017_MG_160_GH_TA,9.4034,-0.8424,Ghana,,,,ERR2683179,MGYS00003139
ERS2597391,DTU2017_MG_167_LK_MA,SAMEA4777443,DTU2017_MG_167_LK_MA,6.9312,79.874,Sri Lanka,,,,ERR2683186,MGYS00003139
ERS2597393,DTU2017_MG_16_BR_BE,SAMEA4777445,DTU2017_MG_16_BR_BE,-1.4283,-48.4921,Brazil,,,,ERR2683188,MGYS00003139
ERS2597394,DTU2017_MG_17_US_PO,SAMEA4777446,DTU2017_MG_17_US_PO,45.5951,-122.7176,USA,,,,ERR2683189,MGYS00003139
ERS2597396,DTU2017_MG_19_MY_AS,SAMEA4777448,DTU2017_MG_19_MY_AS,5.6044,100.5436,Malaysia,,,,ERR2683191,MGYS00003139
ERS2597397,DTU2017_MG_1_TH_BK,SAMEA4777449,DTU2017_MG_1_TH_BK,13.7579,100.4859,Thailand,,,,ERR2683192,MGYS00003139
ERS2597398,DTU2017_MG_20_MY_PG,SAMEA4777450,DTU2017_MG_20_MY_PG,5.4356,100.3091,Malaysia,,,,ERR2683193,MGYS00003139
ERS2597399,DTU2017_MG_21_MY_IP,SAMEA4777451,DTU2017_MG_21_MY_IP,4.5975,101.0901,Malaysia,,,,ERR2683194,MGYS00003139
ERS2597400,DTU2017_MG_22_MY_PB,SAMEA4777452,DTU2017_MG_22_MY_PB,5.438,100.3882,Malaysia,,,,ERR2683195,MGYS00003139
ERS2597401,DTU2017_MG_23_JP_JP,SAMEA4777453,DTU2017_MG_23_JP_JP,36.2048,138.2529,Japan,,,,ERR2683196,MGYS00003139
ERS2597404,DTU2017_MG_26_NL_UT,SAMEA4777456,DTU2017_MG_26_NL_UT,52.1084,5.1112,Netherlands,,,,ERR2683199,MGYS00003139
ERS2597405,DTU2017_MG_27_UY_MV,SAMEA4777457,DTU2017_MG_27_UY_MV,-34.9301,-56.1609,Uruguay,,,,ERR2683200,MGYS00003139
ERS2597408,DTU2017_MG_2_PT_LI,SAMEA4777460,DTU2017_MG_2_PT_LI,38.7221,-9.1746,Portugal,,,,ERR2683203,MGYS00003139
ERS2597409,DTU2017_MG_30_LB_SF,SAMEA4777461,DTU2017_MG_30_LB_SF,34.015,35.6398,Lebanon,,,,ERR2683204,MGYS00003139
ERS2597410,DTU2017_MG_31_LB_RI,SAMEA4777462,DTU2017_MG_31_LB_RI,33.8559,35.9948,Lebanon,,,,ERR2683205,MGYS00003139
ERS2597413,DTU2017_MG_34_LB_SD,SAMEA4777465,DTU2017_MG_34_LB_SD,33.5062,35.3038,Lebanon,,,,ERR2683208,MGYS00003139
ERS2597416,DTU2017_MG_37_GH_AC,SAMEA4777468,DTU2017_MG_37_GH_AC,5.6037,-0.187,Ghana,,,,ERR2683211,MGYS00003139
ERS2597418,DTU2017_MG_39_NZ_CH,SAMEA4777470,DTU2017_MG_39_NZ_CH,-43.5256,172.6997,New Zealand,,,,ERR2683213,MGYS00003139
ERS2597419,DTU2017_MG_3_ES_BA,SAMEA4777471,DTU2017_MG_3_ES_BA,41.4096,2.2228,Spain,,,,ERR2683214,MGYS00003139
ERS2597420,DTU2017_MG_40_PH_QU,SAMEA4777472,DTU2017_MG_40_PH_QU,14.6027,120.9671,Philippines,,,,ERR2683215,MGYS00003139
ERS2597423,DTU2017_MG_43_CH_BR,SAMEA4777475,DTU2017_MG_43_CH_BR,46.9722,7.4285,Switzerland,,,,ERR2683218,MGYS00003139
ERS2597424,DTU2017_MG_44_SI_LJ,SAMEA4777476,DTU2017_MG_44_SI_LJ,46.074,14.6119,Slovenia,,,,ERR2683219,MGYS00003139
ERS2597425,DTU2017_MG_45_SE_UP,SAMEA4777477,DTU2017_MG_45_SE_UP,59.8436,17.6575,Sweden,,,,ERR2683220,MGYS00003139
ERS2597426,DTU2017_MG_46_IT_VE,SAMEA4777478,DTU2017_MG_46_IT_VE,45.9352,8.5596,Italy,,,,ERR2683221,MGYS00003139
ERS2597427,DTU2017_MG_47_IT_CA,SAMEA4777479,DTU2017_MG_47_IT_CA,45.0659,8.6918,Italy,,,,ERR2683222,MGYS00003139
ERS2597428,DTU2017_MG_48_IT_NO,SAMEA4777480,DTU2017_MG_48_IT_NO,45.4218,8.5968,Italy,,,,ERR2683223,MGYS00003139
ERS2597430,DTU2017_MG_4_GR_AT,SAMEA4777482,DTU2017_MG_4_GR_AT,37.9417,23.5893,Greece,,,,ERR2683225,MGYS00003139
ERS2597432,DTU2017_MG_51_SN_DA,SAMEA4777484,DTU2017_MG_51_SN_DA,14.7462,-17.4266,Senegal,,,,ERR2683227,MGYS00003139
ERS2597433,DTU2017_MG_52_ME_PO,SAMEA4777485,DTU2017_MG_52_ME_PO,42.4342,19.2355,Montenegro,,,,ERR2683228,MGYS00003139
ERS2597436,DTU2017_MG_55_FI_TU,SAMEA4777488,DTU2017_MG_55_FI_TU,60.4438,22.2379,Finland,,,,ERR2683231,MGYS00003139
ERS2597437,DTU2017_MG_56_FI_OU,SAMEA4777489,DTU2017_MG_56_FI_OU,65.0544,25.4122,Finland,,,,ERR2683232,MGYS00003139
ERS2597438,DTU2017_MG_57_FI_HE,SAMEA4777490,DTU2017_MG_57_FI_HE,60.2261,24.9916,Finland,,,,ERR2683233,MGYS00003139
ERS2597443,DTU2017_MG_61_TZ_MO,SAMEA4777495,DTU2017_MG_61_TZ_MO,-6.7866,37.6735,Tanzania,,,,ERR2683238,MGYS00003139
ERS2597446,DTU2017_MG_64_BB_BR,SAMEA4777498,DTU2017_MG_64_BB_BR,13.1008,-59.6212,Barbados,,,,ERR2683241,MGYS00003139
ERS2597449,DTU2017_MG_67_US_AU,SAMEA4777501,DTU2017_MG_67_US_AU,30.209,-97.6045,USA,,,,ERR2683244,MGYS00003139
ERS2597450,DTU2017_MG_68_US_HO_a,SAMEA4777502,DTU2017_MG_68_US_HO_a,29.7058,-95.5649,USA,,,,ERR2683245,MGYS00003139
ERS2597451,DTU2017_MG_69_BD_DH,SAMEA4777503,DTU2017_MG_69_BD_DH,23.6834,90.4514,Bangladesh,,,,ERR2683246,MGYS00003139
ERS2597454,DTU2017_MG_71_SK_BR,SAMEA4777506,DTU2017_MG_71_SK_BR,48.2591,17.3591,Slovakia,,,,ERR2683249,MGYS00003139
ERS2597456,DTU2017_MG_73_LV_RI,SAMEA4777508,DTU2017_MG_73_LV_RI,56.5067,25.9096,Latvia,,,,ERR2683251,MGYS00003139
ERS2597457,DTU2017_MG_74_LV_LI,SAMEA4777509,DTU2017_MG_74_LV_LI,56.5167,21.0167,Latvia,,,,ERR2683252,MGYS00003139
ERS2597459,DTU2017_MG_76_MU_PL,SAMEA4777511,DTU2017_MG_76_MU_PL,-20.7321,57.4338,Mauritius,,,,ERR2683254,MGYS00003139
ERS2597460,DTU2017_MG_77_IL_BE,SAMEA4777512,DTU2017_MG_77_IL_BE,31.253,34.7914,Israel,,,,ERR2683255,MGYS00003139
ERS2597462,DTU2017_MG_79_AU_MA,SAMEA4777514,DTU2017_MG_79_AU_MA,,134.2294,Australia,,,,ERR2683257,MGYS00003139
ERS2597464,DTU2017_MG_80_AU_DD,SAMEA4777516,DTU2017_MG_80_AU_DD,-12.3646,130.909,Australia,,,,ERR2683259,MGYS00003139
ERS2597466,DTU2017_MG_82_MT_MN,SAMEA4777518,DTU2017_MG_82_MT_MN,35.9675,14.3378,Malta,,,,ERR2683261,MGYS00003139
ERS2597469,DTU2017_MG_85_SA_KA,SAMEA4777521,DTU2017_MG_85_SA_KA,22.2987,39.1186,Saudi Arabia,,,,ERR2683264,MGYS00003139
ERS2597470,DTU2017_MG_86_LC_CA,SAMEA4777522,DTU2017_MG_86_LC_CA,14.0158,-60.9916,Saint Lucia,,,,ERR2683265,MGYS00003139
ERS2597473,DTU2017_MG_89_TG_LO,SAMEA4777525,DTU2017_MG_89_TG_LO,6.126,1.2184,Togo,,,,ERR2683268,MGYS00003139
ERS2597478,DTU2017_MG_93_TW_TA,SAMEA4777530,DTU2017_MG_93_TW_TA,25.0664,121.5744,Taiwan,,,,ERR2683273,MGYS00003139
ERS2597481,DTU2017_MG_96_EC_QU,SAMEA4777533,DTU2017_MG_96_EC_QU,-0.1853,-78.4172,Ecuador,,,,ERR2683276,MGYS00003139
ERS2597482,DTU2017_MG_97_PE_PI,SAMEA4777534,DTU2017_MG_97_PE_PI,-5.1576,-80.6858,Peru,,,,ERR2683277,MGYS00003139
ERS2597488,DTU2017_MG_169_NC_A,SAMEA4777540,extraction_control,66.9425,-53.6531,Denmark,,,,ERR2683525,MGYS00003139
ERS2597490,DTU2017_MG_171_NC_C,SAMEA4777542,extraction_control,66.9425,-53.6531,Denmark,,,,ERR2683527,MGYS00003139
ERS2597491,DTU2017_MG_172_NC_D,SAMEA4777543,extraction_control,66.9425,-53.6531,Denmark,,,,ERR2683528,MGYS00003139
ERS2597492,DTU2017_MG_173_NC_E,SAMEA4777544,extraction_control,66.9425,-53.6531,Denmark,,,,ERR2683529,MGYS00003139
ERS2597497,DTU2017_MG_178_NC_J,SAMEA4777549,extraction_control,66.9425,-53.6531,Denmark,,,,ERR2683534,MGYS00003139
ERS2597498,DTU2017_MG_179_NC_K,SAMEA4777550,extraction_control,66.9425,-53.6531,Denmark,,,,ERR2683535,MGYS00003139
ERS2597321,DTU2017_MG_102_MW_MZ,SAMEA4777373,DTU2017_MG_102_MW_MZ,-11.7634,34.0252,Malawi,,,,ERR2683116,MGYS00003139
ERS2597322,DTU2017_MG_103_MW_ZO,SAMEA4777374,DTU2017_MG_103_MW_ZO,-15.4528,35.5025,Malawi,,,,ERR2683117,MGYS00003139
ERS2597324,DTU2017_MG_105_IS_RE,SAMEA4777376,DTU2017_MG_105_IS_RE,64.1558,-21.8723,Iceland,,,,ERR2683119,MGYS00003139
ERS2597325,DTU2017_MG_106_PL_PL,SAMEA4777377,DTU2017_MG_106_PL_PL,51.448,21.9518,Poland,,,,ERR2683120,MGYS00003139
ERS2597327,DTU2017_MG_108_NG_IL_b,SAMEA4777379,DTU2017_MG_108_NG_IL_b,8.4807,4.672,Nigeria,,,,ERR2683122,MGYS00003139
ERS2597328,DTU2017_MG_10_CI_YA,SAMEA4777380,DTU2017_MG_10_CI_YA,6.8075,-5.2751,Cote d&apos;Ivoire,,,,ERR2683123,MGYS00003139
ERS2597330,DTU2017_MG_111_NG_ZA_a,SAMEA4777382,DTU2017_MG_111_NG_ZA_a,11.1358,7.6637,Nigeria,,,,ERR2683125,MGYS00003139
ERS2597331,DTU2017_MG_112_NG_ZA_b,SAMEA4777383,DTU2017_MG_112_NG_ZA_b,11.1459,7.6586,Nigeria,,,,ERR2683126,MGYS00003139
ERS2597332,DTU2017_MG_113_NG_ZA_c,SAMEA4777384,DTU2017_MG_113_NG_ZA_c,11.1459,7.6587,Nigeria,,,,ERR2683127,MGYS00003139
ERS2597335,DTU2017_MG_116_NI_MN,SAMEA4777387,DTU2017_MG_116_NI_MN,12.1639,-86.2236,Nicaragua,,,,ERR2683130,MGYS00003139
ERS2597336,DTU2017_MG_117_NI_MT,SAMEA4777388,DTU2017_MG_117_NI_MT,12.9147,-85.94,Nicaragua,,,,ERR2683131,MGYS00003139
ERS2597337,DTU2017_MG_118_NI_GR,SAMEA4777389,DTU2017_MG_118_NI_GR,11.9136,-85.9328,Nicaragua,,,,ERR2683132,MGYS00003139
ERS2597339,DTU2017_MG_11_MY_KL,SAMEA4777391,DTU2017_MG_11_MY_KL,3.1831,101.7111,Malaysia,,,,ERR2683134,MGYS00003139
ERS2597340,DTU2017_MG_120_TZ_MS,SAMEA4777392,DTU2017_MG_120_TZ_MS,-3.3745,37.427,Tanzania,,,,ERR2683135,MGYS00003139
ERS2597344,DTU2017_MG_124_EE_NA,SAMEA4777396,DTU2017_MG_124_EE_NA,59.3598,28.1829,Estonia,,,,ERR2683139,MGYS00003139
ERS2597347,DTU2017_MG_127_HR_ZA,SAMEA4777399,DTU2017_MG_127_HR_ZA,45.7877,16.0791,Croatia,,,,ERR2683142,MGYS00003139
ERS2597353,DTU2017_MG_132_GR_TH,SAMEA4777405,DTU2017_MG_132_GR_TH,40.6637,22.8333,Greece,,,,ERR2683148,MGYS00003139
ERS2597354,DTU2017_MG_133_AU_ME,SAMEA4777406,DTU2017_MG_133_AU_ME,-37.9145,144.6432,Australia,,,,ERR2683149,MGYS00003139
ERS2597355,DTU2017_MG_134_PT_PO,SAMEA4777407,DTU2017_MG_134_PT_PO,41.1579,-8.6291,Portugal,,,,ERR2683150,MGYS00003139
ERS2597356,DTU2017_MG_135_GB_ED,SAMEA4777408,DTU2017_MG_135_GB_ED,55.9701,-3.1449,United Kingdom,,,,ERR2683151,MGYS00003139
ERS2597357,DTU2017_MG_136_CA_RE,SAMEA4777409,DTU2017_MG_136_CA_RE,50.4411,-104.7558,Canada,,,,ERR2683152,MGYS00003139
ERS2597358,DTU2017_MG_137_CA_VA,SAMEA4777410,DTU2017_MG_137_CA_VA,49.1654,-122.9506,Canada,,,,ERR2683153,MGYS00003139
ERS2597359,DTU2017_MG_138_CA_CA,SAMEA4777411,DTU2017_MG_138_CA_CA,51.0131,-114.0246,Canada,,,,ERR2683154,MGYS00003139
ERS2597360,DTU2017_MG_139_CA_OT,SAMEA4777412,DTU2017_MG_139_CA_OT,45.4599,-75.5853,Canada,,,,ERR2683155,MGYS00003139
ERS2597361,DTU2017_MG_13_CM_YA,SAMEA4777413,DTU2017_MG_13_CM_YA,3.8706,11.4845,Cameroon,,,,ERR2683156,MGYS00003139
ERS2597362,DTU2017_MG_140_BG_SO,SAMEA4777414,DTU2017_MG_140_BG_SO,42.7509,23.3665,Bulgaria,,,,ERR2683157,MGYS00003139
ERS2597363,DTU2017_MG_141_GB_NC,SAMEA4777415,DTU2017_MG_141_GB_NC,54.9901,-1.4796,United Kingdom,,,,ERR2683158,MGYS00003139
ERS2597364,DTU2017_MG_142_CA_TO,SAMEA4777416,DTU2017_MG_142_CA_TO,43.6313,-79.4806,Canada,,,,ERR2683159,MGYS00003139
ERS2597366,DTU2017_MG_144_IN_MP,SAMEA4777418,DTU2017_MG_144_IN_MP,13.3576,74.7427,India,,,,ERR2683161,MGYS00003139
ERS2597367,DTU2017_MG_145_NO_OS,SAMEA4777419,DTU2017_MG_145_NO_OS,59.7934,10.4994,Norway,,,,ERR2683162,MGYS00003139
ERS2597368,DTU2017_MG_146_PK_KA,SAMEA4777420,DTU2017_MG_146_PK_KA,24.8537,67.0751,Pakistan,,,,ERR2683163,MGYS00003139
ERS2597369,DTU2017_MG_147_PK_HY,SAMEA4777421,DTU2017_MG_147_PK_HY,25.3746,68.3633,Pakistan,,,,ERR2683164,MGYS00003139
ERS2597370,DTU2017_MG_148_BF_OU,SAMEA4777422,DTU2017_MG_148_BF_OU,12.4272,-1.4807,Burkina Faso,,,,ERR2683165,MGYS00003139
ERS2597371,DTU2017_MG_149_BF_BO,SAMEA4777423,DTU2017_MG_149_BF_BO,11.2055,-4.2758,Burkina Faso,,,,ERR2683166,MGYS00003139
ERS2597372,DTU2017_MG_14_HK_HK,SAMEA4777424,DTU2017_MG_14_HK_HK,22.4039,114.2125,Hong Kong,,,,ERR2683167,MGYS00003139
ERS2597373,DTU2017_MG_150_SG_JU,SAMEA4777425,DTU2017_MG_150_SG_JU,1.3521,103.8198,Singapore,,,,ERR2683168,MGYS00003139
ERS2597374,DTU2017_MG_151_PY_CO,SAMEA4777426,DTU2017_MG_151_PY_CO,-25.276,-57.6334,Paraguay,,,,ERR2683169,MGYS00003139
ERS2597376,DTU2017_MG_153_KH_PP,SAMEA4777428,DTU2017_MG_153_KH_PP,11.5226,104.9026,Cambodia,,,,ERR2683171,MGYS00003139
ERS2597380,DTU2017_MG_157_KZ_AL,SAMEA4777432,DTU2017_MG_157_KZ_AL,43.4039,76.8889,Kazakhstan,,,,ERR2683175,MGYS00003139
ERS2597381,DTU2017_MG_158_US_CH,SAMEA4777433,DTU2017_MG_158_US_CH,,,USA,,,,ERR2683176,MGYS00003139
ERS2597383,DTU2017_MG_15_VN_HO,SAMEA4777435,DTU2017_MG_15_VN_HO,20.9756,105.8658,Viet Nam,,,,ERR2683178,MGYS00003139
ERS2597385,DTU2017_MG_161_IR_TH,SAMEA4777437,DTU2017_MG_161_IR_TH,35.5686,51.439,Iran,,,,ERR2683180,MGYS00003139
ERS2597386,DTU2017_MG_162_MA_CA,SAMEA4777438,DTU2017_MG_162_MA_CA,33.6343,-7.5088,Morocco,,,,ERR2683181,MGYS00003139
ERS2597387,DTU2017_MG_163_LK_RA,SAMEA4777439,DTU2017_MG_163_LK_RA,7.1421,79.8971,Sri Lanka,,,,ERR2683182,MGYS00003139
ERS2597388,DTU2017_MG_164_LK_MO,SAMEA4777440,DTU2017_MG_164_LK_MO,6.8059,79.8852,Sri Lanka,,,,ERR2683183,MGYS00003139
ERS2597389,DTU2017_MG_165_LK_BO,SAMEA4777441,DTU2017_MG_165_LK_BO,6.9116,79.8799,Sri Lanka,,,,ERR2683184,MGYS00003139
ERS2597390,DTU2017_MG_166_LK_CO,SAMEA4777442,DTU2017_MG_166_LK_CO,6.9132,79.8513,Sri Lanka,,,,ERR2683185,MGYS00003139
ERS2597392,DTU2017_MG_168_IR_SH,SAMEA4777444,DTU2017_MG_168_IR_SH,29.5453,52.6354,Iran,,,,ERR2683187,MGYS00003139
ERS2597395,DTU2017_MG_18_GL_SI,SAMEA4777447,DTU2017_MG_18_GL_SI,66.9425,-53.6531,Denmark,,,,ERR2683190,MGYS00003139
ERS2597402,DTU2017_MG_24_DK_AV,SAMEA4777454,DTU2017_MG_24_DK_AV,55.6405,12.5058,Denmark,,,,ERR2683197,MGYS00003139
ERS2597403,DTU2017_MG_25_NL_AM,SAMEA4777455,DTU2017_MG_25_NL_AM,52.3985,4.7942,Netherlands,,,,ERR2683198,MGYS00003139
ERS2597406,DTU2017_MG_28_LB_TR,SAMEA4777458,DTU2017_MG_28_LB_TR,34.4443,35.8144,Lebanon,,,,ERR2683201,MGYS00003139
ERS2597407,DTU2017_MG_29_LB_JZ,SAMEA4777459,DTU2017_MG_29_LB_JZ,33.5422,35.5831,Lebanon,,,,ERR2683202,MGYS00003139
ERS2597411,DTU2017_MG_32_LB_KO,SAMEA4777463,DTU2017_MG_32_LB_KO,34.3646,35.7837,Lebanon,,,,ERR2683206,MGYS00003139
ERS2597412,DTU2017_MG_33_LB_SA,SAMEA4777464,DTU2017_MG_33_LB_SA,33.5641,35.37,Lebanon,,,,ERR2683207,MGYS00003139
ERS2597414,DTU2017_MG_35_DE_DR,SAMEA4777466,DTU2017_MG_35_DE_DR,51.071,13.6809,Germany,,,,ERR2683209,MGYS00003139
ERS2597415,DTU2017_MG_36_AL_TI,SAMEA4777467,DTU2017_MG_36_AL_TI,41.3571,19.7709,Albania,,,,ERR2683210,MGYS00003139
ERS2597417,DTU2017_MG_38_GH_KU,SAMEA4777469,DTU2017_MG_38_GH_KU,6.6653,-1.5761,Ghana,,,,ERR2683212,MGYS00003139
ERS2597421,DTU2017_MG_41_FR_NA,SAMEA4777473,DTU2017_MG_41_FR_NA,47.1919,-1.5826,France,,,,ERR2683216,MGYS00003139
ERS2597422,DTU2017_MG_42_FR_AU,SAMEA4777474,DTU2017_MG_42_FR_AU,47.5991,-2.9808,France,,,,ERR2683217,MGYS00003139
ERS2597429,DTU2017_MG_49_IE_GA,SAMEA4777481,DTU2017_MG_49_IE_GA,53.2536,-9.0547,Ireland,,,,ERR2683224,MGYS00003139
ERS2597431,DTU2017_MG_50_AT_VI,SAMEA4777483,DTU2017_MG_50_AT_VI,48.174,16.4632,Austria,,,,ERR2683226,MGYS00003139
ERS2597434,DTU2017_MG_53_ET_AD,SAMEA4777486,DTU2017_MG_53_ET_AD,8.9191,38.7574,Ethiopia,,,,ERR2683229,MGYS00003139
ERS2597435,DTU2017_MG_54_RS_BE,SAMEA4777487,DTU2017_MG_54_RS_BE,44.8302,20.4634,Serbia,,,,ERR2683230,MGYS00003139
ERS2597439,DTU2017_MG_58_CZ_PR,SAMEA4777491,DTU2017_MG_58_CZ_PR,50.1128,14.3985,Czech Republic,,,,ERR2683234,MGYS00003139
ERS2597440,DTU2017_MG_59_CZ_BR,SAMEA4777492,DTU2017_MG_59_CZ_BR,49.1313,16.6295,Czech Republic,,,,ERR2683235,MGYS00003139
ERS2597441,DTU2017_MG_5_GB_FA,SAMEA4777493,DTU2017_MG_5_GB_FA,50.1505,-5.0479,United Kingdom,,,,ERR2683236,MGYS00003139
ERS2597442,DTU2017_MG_60_TZ_MW,SAMEA4777494,DTU2017_MG_60_TZ_MW,-2.4711,32.911,Tanzania,,,,ERR2683237,MGYS00003139
ERS2597444,DTU2017_MG_62_PY_SL,SAMEA4777496,DTU2017_MG_62_PY_SL,-25.3288,-57.4893,Paraguay,,,,ERR2683239,MGYS00003139
ERS2597445,DTU2017_MG_63_PY_AS,SAMEA4777497,DTU2017_MG_63_PY_AS,-25.2623,-57.5924,Paraguay,,,,ERR2683240,MGYS00003139
ERS2597447,DTU2017_MG_65_BB_WO,SAMEA4777499,DTU2017_MG_65_BB_WO,13.1489,-59.6247,Barbados,,,,ERR2683242,MGYS00003139
ERS2597448,DTU2017_MG_66_US_WA,SAMEA4777500,DTU2017_MG_66_US_WA,31.5171,-97.0659,USA,,,,ERR2683243,MGYS00003139
ERS2597452,DTU2017_MG_6_GB_CA,SAMEA4777504,DTU2017_MG_6_GB_CA,50.2299,-5.3221,United Kingdom,,,,ERR2683247,MGYS00003139
ERS2597453,DTU2017_MG_70_US_HO_b,SAMEA4777505,DTU2017_MG_70_US_HO_b,29.7003,-95.2665,USA,,,,ERR2683248,MGYS00003139
ERS2597455,DTU2017_MG_72_SE_GO,SAMEA4777507,DTU2017_MG_72_SE_GO,57.6975,11.891,Sweden,,,,ERR2683250,MGYS00003139
ERS2597458,DTU2017_MG_75_DE_BE,SAMEA4777510,DTU2017_MG_75_DE_BE,52.5313,13.223,Germany,,,,ERR2683253,MGYS00003139
ERS2597461,DTU2017_MG_78_BA_BL,SAMEA4777513,DTU2017_MG_78_BA_BL,44.7703,17.2083,Bosnia and Herzegovina,,,,ERR2683256,MGYS00003139
ERS2597463,DTU2017_MG_7_TD_ND,SAMEA4777515,DTU2017_MG_7_TD_ND,12.1348,15.0557,Chad,,,,ERR2683258,MGYS00003139
ERS2597465,DTU2017_MG_81_MT_MS,SAMEA4777517,DTU2017_MG_81_MT_MS,35.8806,14.5544,Malta,,,,ERR2683260,MGYS00003139
ERS2597467,DTU2017_MG_83_MT_GO,SAMEA4777519,DTU2017_MG_83_MT_GO,36.0197,14.2775,Malta,,,,ERR2683262,MGYS00003139
ERS2597468,DTU2017_MG_84_HU_BU,SAMEA4777520,DTU2017_MG_84_HU_BU,47.5692,19.0746,Hungary,,,,ERR2683263,MGYS00003139
ERS2597471,DTU2017_MG_87_LC_GR,SAMEA4777523,DTU2017_MG_87_LC_GR,14.0761,,Saint Lucia,,,,ERR2683266,MGYS00003139
ERS2597472,DTU2017_MG_88_IN_CO,SAMEA4777524,DTU2017_MG_88_IN_CO,9.7914,76.3051,India,,,,ERR2683267,MGYS00003139
ERS2597474,DTU2017_MG_8_CI_AB,SAMEA4777526,DTU2017_MG_8_CI_AB,5.3414,-4.0164,Cote d&apos;Ivoire,,,,ERR2683269,MGYS00003139
ERS2597475,DTU2017_MG_90_NG_LA,SAMEA4777527,DTU2017_MG_90_NG_LA,6.6156,3.2628,Nigeria,,,,ERR2683270,MGYS00003139
ERS2597476,DTU2017_MG_91_CI_BO_b,SAMEA4777528,DTU2017_MG_91_CI_BO_b,7.7202,-5.0499,Cote d&apos;Ivoire,,,,ERR2683271,MGYS00003139
ERS2597477,DTU2017_MG_92_BW_GA,SAMEA4777529,DTU2017_MG_92_BW_GA,-24.6074,25.9635,Botswana,,,,ERR2683272,MGYS00003139
ERS2597479,DTU2017_MG_94_US_SE,SAMEA4777531,DTU2017_MG_94_US_SE,47.6619,-122.4313,USA,,,,ERR2683274,MGYS00003139
ERS2597480,DTU2017_MG_95_US_WO,SAMEA4777532,DTU2017_MG_95_US_WO,47.7897,-122.1405,USA,,,,ERR2683275,MGYS00003139
ERS2597483,DTU2017_MG_98_EC_GY,SAMEA4777535,DTU2017_MG_98_EC_GY,-2.1739,-79.9106,Ecuador,,,,ERR2683278,MGYS00003139
ERS2597484,DTU2017_MG_99_EC_CU,SAMEA4777536,DTU2017_MG_99_EC_CU,-2.8775,-78.9439,Ecuador,,,,ERR2683279,MGYS00003139
ERS2597485,DTU2017_MG_9_CI_BO_a,SAMEA4777537,DTU2017_MG_9_CI_BO_a,7.6959,-5.0326,Cote d&apos;Ivoire,,,,ERR2683280,MGYS00003139
ERS2597489,DTU2017_MG_170_NC_B,SAMEA4777541,extraction_control,66.9425,-53.6531,Denmark,,,,ERR2683526,MGYS00003139
ERS2597493,DTU2017_MG_174_NC_F,SAMEA4777545,extraction_control,66.9425,-53.6531,Denmark,,,,ERR2683530,MGYS00003139
ERS2597494,DTU2017_MG_175_NC_G,SAMEA4777546,extraction_control,66.9425,-53.6531,Denmark,,,,ERR2683531,MGYS00003139
ERS2597495,DTU2017_MG_176_NC_H,SAMEA4777547,extraction_control,66.9425,-53.6531,Denmark,,,,ERR2683532,MGYS00003139
ERS2597496,DTU2017_MG_177_NC_I,SAMEA4777548,extraction_control,66.9425,-53.6531,Denmark,,,,ERR2683533,MGYS00003139
ERS2597499,DTU2017_MG_180_NC_L,SAMEA4777551,extraction_control,66.9425,-53.6531,Denmark,,,,ERR2683536,MGYS00003139
ERS2597500,DTU2017_MG_181_NC_M,SAMEA4777552,extraction_control,66.9425,-53.6531,Denmark,,,,ERR2683537,MGYS00003139
ERS2597501,DTU2017_MG_182_NC_N,SAMEA4777553,extraction_control,66.9425,-53.6531,Denmark,,,,ERR2683538,MGYS00003139
,,,,,,,,,,,MGYS00003139
ERS223627,palm oil mill effluent (POME) metagenome,SAMEA2163750,palm oil mill effluent (POME) metagenome,2.0,101.0,Malaysia,palm oil mill effluent,closed biodigester,sludge,ERR276848,MGYS00001389
ERS1572689,Black Water Project,SAMEA100930918,Black Water,,,Netherlands,,,,ERR1857181,MGYS00001566
ERS1572690,Black Water Project,SAMEA100931668,Black Water,,,Netherlands,,,,ERR1857182,MGYS00001566
ERS1572691,Black Water Project,SAMEA100932418,Black Water,,,Netherlands,,,,ERR1857183,MGYS00001566
ERS1572692,Black Water Project,SAMEA100933168,Black Water,,,Netherlands,,,,ERR1857184,MGYS00001566
ERS1572693,Black Water Project,SAMEA100933918,Black Water,,,Netherlands,,,,ERR1857185,MGYS00001566
ERS1572694,Black Water Project,SAMEA100934668,Black Water,,,Netherlands,,,,ERR1857186,MGYS00001566
ERS1572695,Black Water Project,SAMEA100935418,Black Water,,,Netherlands,,,,ERR1857187,MGYS00001566
ERS1572696,Black Water Project,SAMEA100936168,Black Water,,,Netherlands,,,,ERR1857188,MGYS00001566
ERS1572697,Black Water Project,SAMEA100936918,Black Water,,,Netherlands,,,,ERR1857189,MGYS00001566
ERS1572698,Black Water Project,SAMEA100937668,Sludge UASB,,,Netherlands,,,,ERR1857190,MGYS00001566
ERS1572699,Black Water Project,SAMEA100938418,Sludge UASB,,,Netherlands,,,,ERR1857191,MGYS00001566
ERS1572700,Black Water Project,SAMEA100939168,Sludge UASB,,,Netherlands,,,,ERR1857192,MGYS00001566
ERS1572701,Black Water Project,SAMEA100939918,Sludge UASB,,,Netherlands,,,,ERR1857193,MGYS00001566
ERS1572702,Black Water Project,SAMEA100940668,Sludge UASB,,,Netherlands,,,,ERR1857194,MGYS00001566
ERS1572703,Black Water Project,SAMEA100941418,Sludge UASB,,,Netherlands,,,,ERR1857195,MGYS00001566
ERS1572704,Black Water Project,SAMEA100942168,Sludge UASB,,,Netherlands,,,,ERR1857196,MGYS00001566
ERS1572705,Black Water Project,SAMEA100942918,Sludge UASB,,,Netherlands,,,,ERR1857197,MGYS00001566
ERS1572706,Black Water Project,SAMEA100943668,Sludge UASB,,,Netherlands,,,,ERR1857198,MGYS00001566
ERS1572707,Black Water Project,SAMEA100944418,Effluent UASB,,,Netherlands,,,,ERR1857199,MGYS00001566
ERS1572708,Black Water Project,SAMEA100945168,Effluent UASB,,,Netherlands,,,,ERR1857200,MGYS00001566
ERS1572709,Black Water Project,SAMEA100945918,Effluent UASB,,,Netherlands,,,,ERR1857201,MGYS00001566
ERS1572710,Black Water Project,SAMEA100946668,Effluent UASB,,,Netherlands,,,,ERR1857202,MGYS00001566
ERS1572711,Black Water Project,SAMEA100947418,Effluent UASB,,,Netherlands,,,,ERR1857203,MGYS00001566
ERS1572712,Black Water Project,SAMEA100948168,Effluent UASB,,,Netherlands,,,,ERR1857204,MGYS00001566
ERS1572713,Black Water Project,SAMEA100948918,Effluent UASB,,,Netherlands,,,,ERR1857205,MGYS00001566
ERS1572714,Black Water Project,SAMEA100949668,Effluent UASB,,,Netherlands,,,,ERR1857206,MGYS00001566
ERS1572715,Black Water Project,SAMEA100950418,Effluent UASB,,,Netherlands,,,,ERR1857207,MGYS00001566
ERS1572716,Black Water Project,SAMEA100951168,Effluent PBR,,,Netherlands,,,,ERR1857208,MGYS00001566
ERS1572717,Black Water Project,SAMEA100951918,Effluent PBR,,,Netherlands,,,,ERR1857209,MGYS00001566
ERS1572718,Black Water Project,SAMEA100952668,Effluent PBR,,,Netherlands,,,,ERR1857210,MGYS00001566
ERS1572719,Black Water Project,SAMEA100953418,Effluent PBR,,,Netherlands,,,,ERR1857211,MGYS00001566
ERS1572720,Black Water Project,SAMEA100954168,Effluent PBR,,,Netherlands,,,,ERR1857212,MGYS00001566
ERS1572721,Black Water Project,SAMEA100954918,Effluent PBR,,,Netherlands,,,,ERR1857213,MGYS00001566
ERS1572722,Black Water Project,SAMEA100955668,Effluent PBR,,,Netherlands,,,,ERR1857214,MGYS00001566
ERS1572723,Black Water Project,SAMEA100956418,Effluent PBR,,,Netherlands,,,,ERR1857215,MGYS00001566
ERS1572724,Black Water Project,SAMEA100957168,Effluent PBR,,,Netherlands,,,,ERR1857216,MGYS00001566
ERS2758580,TG.INF_W56.READ1 Taxonomy ID:256318,SAMEA4939797,TG.INF_W56.READ1 Taxonomy ID:256318,46.8182,8.2275,Switzerland,aquatic biome,wastewater treatment plant,water,ERR2814645,MGYS00005056
ERS2758581,FD.INF_W64.READ2 Taxonomy ID:256318,SAMEA4939798,FD.INF_W64.READ2 Taxonomy ID:256318,46.8182,8.2275,Switzerland,aquatic biome,wastewater treatment plant,water,ERR2814646,MGYS00005056
ERS2758582,MN.INF_W54.READ1 Taxonomy ID:256318,SAMEA4939799,MN.INF_W54.READ1 Taxonomy ID:256318,46.8182,8.2275,Switzerland,aquatic biome,wastewater treatment plant,water,ERR2814647,MGYS00005056
ERS2758583,WT.INF_W60.READ2 Taxonomy ID:256318,SAMEA4939800,WT.INF_W60.READ2 Taxonomy ID:256318,46.8182,8.2275,Switzerland,aquatic biome,wastewater treatment plant,water,ERR2814648,MGYS00005056
ERS2758584,ZR.INF_W62.READ2 Taxonomy ID:256318,SAMEA4939801,ZR.INF_W62.READ2 Taxonomy ID:256318,46.8182,8.2275,Switzerland,aquatic biome,wastewater treatment plant,water,ERR2814649,MGYS00005056
ERS2758585,ZR.INF_W62.READ1 Taxonomy ID:256318,SAMEA4939802,ZR.INF_W62.READ1 Taxonomy ID:256318,46.8182,8.2275,Switzerland,aquatic biome,wastewater treatment plant,water,ERR2814650,MGYS00005056
ERS2758586,AH.INF_W74.READ1 Taxonomy ID:256318,SAMEA4939803,AH.INF_W74.READ1 Taxonomy ID:256318,46.8182,8.2275,Switzerland,aquatic biome,wastewater treatment plant,water,ERR2814651,MGYS00005056
ERS2758587,AD.INF_W66.READ1 Taxonomy ID:256318,SAMEA4939804,AD.INF_W66.READ1 Taxonomy ID:256318,46.8182,8.2275,Switzerland,aquatic biome,wastewater treatment plant,water,ERR2814652,MGYS00005056
ERS2758588,FR.INF_W72.READ2 Taxonomy ID:256318,SAMEA4939805,FR.INF_W72.READ2 Taxonomy ID:256318,46.8182,8.2275,Switzerland,aquatic biome,wastewater treatment plant,water,ERR2814653,MGYS00005056
ERS2758589,FR.INF_W72.READ1 Taxonomy ID:256318,SAMEA4939806,FR.INF_W72.READ1 Taxonomy ID:256318,46.8182,8.2275,Switzerland,aquatic biome,wastewater treatment plant,water,ERR2814654,MGYS00005056
ERS2758590,EM.INF_W52.READ2 Taxonomy ID:256318,SAMEA4939807,EM.INF_W52.READ2 Taxonomy ID:256318,46.8182,8.2275,Switzerland,aquatic biome,wastewater treatment plant,water,ERR2814655,MGYS00005056
ERS2758591,TU.INF_W68.READ2 Taxonomy ID:256318,SAMEA4939808,TU.INF_W68.READ2 Taxonomy ID:256318,46.8182,8.2275,Switzerland,aquatic biome,wastewater treatment plant,water,ERR2814656,MGYS00005056
ERS2758592,TE.INF_W58.READ2 Taxonomy ID:256318,SAMEA4939809,TE.INF_W58.READ2 Taxonomy ID:256318,46.8182,8.2275,Switzerland,aquatic biome,wastewater treatment plant,water,ERR2814657,MGYS00005056
ERS2758593,AD.INF_W66.READ2 Taxonomy ID:256318,SAMEA4939810,AD.INF_W66.READ2 Taxonomy ID:256318,46.8182,8.2275,Switzerland,aquatic biome,wastewater treatment plant,water,ERR2814658,MGYS00005056
ERS2758594,AH.INF_W74.READ2 Taxonomy ID:256318,SAMEA4939811,AH.INF_W74.READ2 Taxonomy ID:256318,46.8182,8.2275,Switzerland,aquatic biome,wastewater treatment plant,water,ERR2814659,MGYS00005056
ERS2758595,FD.INF_W64.READ1 Taxonomy ID:256318,SAMEA4939812,FD.INF_W64.READ1 Taxonomy ID:256318,46.8182,8.2275,Switzerland,aquatic biome,wastewater treatment plant,water,ERR2814660,MGYS00005056
ERS2758596,TU.INF_W68.READ1 Taxonomy ID:256318,SAMEA4939813,TU.INF_W68.READ1 Taxonomy ID:256318,46.8182,8.2275,Switzerland,aquatic biome,wastewater treatment plant,water,ERR2814661,MGYS00005056
ERS2758597,WT.INF_W60.READ1 Taxonomy ID:256318,SAMEA4939814,WT.INF_W60.READ1 Taxonomy ID:256318,46.8182,8.2275,Switzerland,aquatic biome,wastewater treatment plant,water,ERR2814662,MGYS00005056
ERS2758598,TG.INF_W56.READ2 Taxonomy ID:256318,SAMEA4939815,TG.INF_W56.READ2 Taxonomy ID:256318,46.8182,8.2275,Switzerland,aquatic biome,wastewater treatment plant,water,ERR2814663,MGYS00005056
ERS2758599,MN.INF_W54.READ2 Taxonomy ID:256318,SAMEA4939816,MN.INF_W54.READ2 Taxonomy ID:256318,46.8182,8.2275,Switzerland,aquatic biome,wastewater treatment plant,water,ERR2814664,MGYS00005056
ERS2758600,BE.INF_W70.READ2 Taxonomy ID:256318,SAMEA4939817,BE.INF_W70.READ2 Taxonomy ID:256318,46.8182,8.2275,Switzerland,aquatic biome,wastewater treatment plant,water,ERR2814665,MGYS00005056
ERS2758601,BE.INF_W70.READ1 Taxonomy ID:256318,SAMEA4939818,BE.INF_W70.READ1 Taxonomy ID:256318,46.8182,8.2275,Switzerland,aquatic biome,wastewater treatment plant,water,ERR2814666,MGYS00005056
ERS2758602,TE.INF_W58.READ1 Taxonomy ID:256318,SAMEA4939819,TE.INF_W58.READ1 Taxonomy ID:256318,46.8182,8.2275,Switzerland,aquatic biome,wastewater treatment plant,water,ERR2814667,MGYS00005056
ERS2758603,EM.INF_W52.READ1 Taxonomy ID:256318,SAMEA4939820,EM.INF_W52.READ1 Taxonomy ID:256318,46.8182,8.2275,Switzerland,aquatic biome,wastewater treatment plant,water,ERR2814668,MGYS00005056
ERS2967391,TG.EFF_W57.READ2 Taxonomy ID:256318,SAMEA5159662,TG.EFF_W57.READ2 Taxonomy ID:256318,46.8182,8.2275,Switzerland,aquatic biome,wastewater treatment plant,water,ERR2985255,MGYS00005058
ERS2967392,MN.EFF_W55.READ2 Taxonomy ID:256318,SAMEA5159663,MN.EFF_W55.READ2 Taxonomy ID:256318,46.8182,8.2275,Switzerland,aquatic biome,wastewater treatment plant,water,ERR2985256,MGYS00005058
ERS2967393,AH.EFF_W75.READ1 Taxonomy ID:256318,SAMEA5159664,AH.EFF_W75.READ1 Taxonomy ID:256318,46.8182,8.2275,Switzerland,aquatic biome,wastewater treatment plant,water,ERR2985257,MGYS00005058
ERS2967394,TE.EFF_W59.READ1 Taxonomy ID:256318,SAMEA5159665,TE.EFF_W59.READ1 Taxonomy ID:256318,46.8182,8.2275,Switzerland,aquatic biome,wastewater treatment plant,water,ERR2985258,MGYS00005058
ERS2967395,FD.EFF_W65.READ1 Taxonomy ID:256318,SAMEA5159666,FD.EFF_W65.READ1 Taxonomy ID:256318,46.8182,8.2275,Switzerland,aquatic biome,wastewater treatment plant,water,ERR2985259,MGYS00005058
ERS2967396,AD.EFF_W67.READ1 Taxonomy ID:256318,SAMEA5159667,AD.EFF_W67.READ1 Taxonomy ID:256318,46.8182,8.2275,Switzerland,aquatic biome,wastewater treatment plant,water,ERR2985260,MGYS00005058
ERS2967397,EM.EFF_W53.READ2 Taxonomy ID:256318,SAMEA5159669,EM.EFF_W53.READ2 Taxonomy ID:256318,46.8182,8.2275,Switzerland,aquatic biome,wastewater treatment plant,water,ERR2985261,MGYS00005058
ERS2967398,MN.EFF_W55.READ1 Taxonomy ID:256318,SAMEA5159670,MN.EFF_W55.READ1 Taxonomy ID:256318,46.8182,8.2275,Switzerland,aquatic biome,wastewater treatment plant,water,ERR2985262,MGYS00005058
ERS2967399,ZR.EFF_W63.READ2 Taxonomy ID:256318,SAMEA5159671,ZR.EFF_W63.READ2 Taxonomy ID:256318,46.8182,8.2275,Switzerland,aquatic biome,wastewater treatment plant,water,ERR2985263,MGYS00005058
ERS2967400,FD.EFF_W65.READ2 Taxonomy ID:256318,SAMEA5159672,FD.EFF_W65.READ2 Taxonomy ID:256318,46.8182,8.2275,Switzerland,aquatic biome,wastewater treatment plant,water,ERR2985264,MGYS00005058
ERS2967401,AD.EFF_W67.READ2 Taxonomy ID:256318,SAMEA5159673,AD.EFF_W67.READ2 Taxonomy ID:256318,46.8182,8.2275,Switzerland,aquatic biome,wastewater treatment plant,water,ERR2985265,MGYS00005058
ERS2967402,ZR.EFF_W63.READ1 Taxonomy ID:256318,SAMEA5159674,ZR.EFF_W63.READ1 Taxonomy ID:256318,46.8182,8.2275,Switzerland,aquatic biome,wastewater treatment plant,water,ERR2985266,MGYS00005058
ERS2967403,WT.EFF_W61.READ2 Taxonomy ID:256318,SAMEA5159675,WT.EFF_W61.READ2 Taxonomy ID:256318,46.8182,8.2275,Switzerland,aquatic biome,wastewater treatment plant,water,ERR2985267,MGYS00005058
ERS2967404,TG.EFF_W57.READ1 Taxonomy ID:256318,SAMEA5159676,TG.EFF_W57.READ1 Taxonomy ID:256318,46.8182,8.2275,Switzerland,aquatic biome,wastewater treatment plant,water,ERR2985268,MGYS00005058
ERS2967405,TU.EFF_W69.READ2 Taxonomy ID:256318,SAMEA5159677,TU.EFF_W69.READ2 Taxonomy ID:256318,46.8182,8.2275,Switzerland,aquatic biome,wastewater treatment plant,water,ERR2985269,MGYS00005058
ERS2967406,AH.EFF_W75.READ2 Taxonomy ID:256318,SAMEA5159678,AH.EFF_W75.READ2 Taxonomy ID:256318,46.8182,8.2275,Switzerland,aquatic biome,wastewater treatment plant,water,ERR2985270,MGYS00005058
ERS2967407,TE.EFF_W59.READ2 Taxonomy ID:256318,SAMEA5159679,TE.EFF_W59.READ2 Taxonomy ID:256318,46.8182,8.2275,Switzerland,aquatic biome,wastewater treatment plant,water,ERR2985271,MGYS00005058
ERS2967408,BE.EFF_W71.READ1 Taxonomy ID:256318,SAMEA5159680,BE.EFF_W71.READ1 Taxonomy ID:256318,46.8182,8.2275,Switzerland,aquatic biome,wastewater treatment plant,water,ERR2985272,MGYS00005058
ERS2967409,BE.EFF_W71.READ2 Taxonomy ID:256318,SAMEA5159681,BE.EFF_W71.READ2 Taxonomy ID:256318,46.8182,8.2275,Switzerland,aquatic biome,wastewater treatment plant,water,ERR2985273,MGYS00005058
ERS2967410,WT.EFF_W61.READ1 Taxonomy ID:256318,SAMEA5159682,WT.EFF_W61.READ1 Taxonomy ID:256318,46.8182,8.2275,Switzerland,aquatic biome,wastewater treatment plant,water,ERR2985274,MGYS00005058
ERS2967411,FR.EFF_W73.READ2 Taxonomy ID:256318,SAMEA5159683,FR.EFF_W73.READ2 Taxonomy ID:256318,46.8182,8.2275,Switzerland,aquatic biome,wastewater treatment plant,water,ERR2985275,MGYS00005058
ERS2967412,EM.EFF_W53.READ1 Taxonomy ID:256318,SAMEA5159684,EM.EFF_W53.READ1 Taxonomy ID:256318,46.8182,8.2275,Switzerland,aquatic biome,wastewater treatment plant,water,ERR2985276,MGYS00005058
ERS2967413,TU.EFF_W69.READ1 Taxonomy ID:256318,SAMEA5159685,TU.EFF_W69.READ1 Taxonomy ID:256318,46.8182,8.2275,Switzerland,aquatic biome,wastewater treatment plant,water,ERR2985277,MGYS00005058
ERS2967414,FR.EFF_W73.READ1 Taxonomy ID:256318,SAMEA5159686,FR.EFF_W73.READ1 Taxonomy ID:256318,46.8182,8.2275,Switzerland,aquatic biome,wastewater treatment plant,water,ERR2985278,MGYS00005058
ERS946133,AS95Spen15102014,SAMEA3638984,AS95Spen15102014,54.7149,-1.614,United Kingdom,Freshwater biome,Wastewater treatment plant,Sewage,ERR1101751,MGYS00000555
